[
    {
        "id": "1",
        "Ime": "ВИВАФАРМ",
        "Adresa": "Ул. Борка Талески бр.58",
        "Opstina": "Прилеп",
        "TelBroj": "048434134",
        "Rating": "2.9",
        "lat": 41.3442513845,
        "lon": 21.5546097038
    },
    {
        "id": "2",
        "Ime": "ВЕЛ ФАРМ",
        "Adresa": "Ул.Ленинова бр.20",
        "Opstina": "Велес",
        "TelBroj": "043520711",
        "Rating": "2.9",
        "lat": 41.7179794572,
        "lon": 21.7678289864
    },
    {
        "id": "3",
        "Ime": "А.С. ФАРМАЦИЈА ЕРА",
        "Adresa": "с. Другово",
        "Opstina": "Кичево",
        "TelBroj": "045222025",
        "Rating": "2.7",
        "lat": 41.5136728477,
        "lon": 20.9636196593
    },
    {
        "id": "4",
        "Ime": "МОЈА АПТЕКА ПРИЛЕП 4",
        "Adresa": "Ул. Кузман Јосифоски бр.229",
        "Opstina": "Прилеп",
        "TelBroj": "076344742",
        "Rating": "3.2",
        "lat": 0,
        "lon": 0
    },
    {
        "id": "5",
        "Ime": "ВЕЛ ФАРМ -2",
        "Adresa": "Ул.Орце Мартинов бр.10",
        "Opstina": "Велес",
        "TelBroj": "043520712",
        "Rating": "1.5",
        "lat": 41.7163881096,
        "lon": 21.7767507228
    },
    {
        "id": "6",
        "Ime": "НЕЛИ-ФАРМ",
        "Adresa": "Ул.Даме Груев бр. бб",
        "Opstina": "Охрид",
        "TelBroj": "046260226",
        "Rating": "3.4",
        "lat": 41.116126391,
        "lon": 20.809366107
    },
    {
        "id": "7",
        "Ime": "А.С. МЕДИКА МАРТА 4",
        "Adresa": "ул. 1 бр.1, с.Буково",
        "Opstina": "Битола",
        "TelBroj": "047239463",
        "Rating": "0.9",
        "lat": 41.0310550769,
        "lon": 21.3374051186
    },
    {
        "id": "8",
        "Ime": "ЕДЕЛВАЈС",
        "Adresa": "Ул.Илинденска бр.9",
        "Opstina": "Прилеп",
        "TelBroj": "075495463",
        "Rating": "1.4",
        "lat": 41.3466597989,
        "lon": 21.5557444095
    },
    {
        "id": "9",
        "Ime": "ПАНАЦЕА",
        "Adresa": "Ул.Васко Карангелески br.102",
        "Opstina": "Прилеп",
        "TelBroj": "048434436",
        "Rating": "4.4",
        "lat": 41.3521124132,
        "lon": 21.5569674968
    },
    {
        "id": "10",
        "Ime": "ВИОЛА 2007",
        "Adresa": "Ул.Самоилова Населба Точила 1 бр.4 и 5",
        "Opstina": "Прилеп",
        "TelBroj": "075994242",
        "Rating": "2.5",
        "lat": 41.3503083491,
        "lon": 21.5384548903
    },
    {
        "id": "11",
        "Ime": "ЕУРО МЕГА ФАРМ-2",
        "Adresa": "ул. Ангел Мишев бр.46",
        "Opstina": "Велес",
        "TelBroj": "043222420",
        "Rating": "4.0",
        "lat": 41.7137121519,
        "lon": 21.7859251672
    },
    {
        "id": "12",
        "Ime": "АДОНИС",
        "Adresa": "Ул. Булевар Социјалистичка Револуција бр.26",
        "Opstina": "Битола",
        "TelBroj": "047612940",
        "Rating": "4.7",
        "lat": 41.0313106297,
        "lon": 21.3019967079
    },
    {
        "id": "13",
        "Ime": "АЛТЕА ФАРМАЦИЈА",
        "Adresa": "Ул.Маршал Тито бр123",
        "Opstina": "Кичево",
        "TelBroj": "070223251",
        "Rating": "0.8",
        "lat": 41.50964417,
        "lon": 20.9616662437
    },
    {
        "id": "14",
        "Ime": "МЕДИКА МАРТА 2",
        "Adresa": "Ул.Солунска бр.89",
        "Opstina": "Битола",
        "TelBroj": "0",
        "Rating": "4.4",
        "lat": 41.0310550769,
        "lon": 21.3374051186
    },
    {
        "id": "15",
        "Ime": "ГАЛЕНИУМ ФАРМ 2",
        "Adresa": "ул.Васил Ѓоргов бр.16",
        "Opstina": "Центар",
        "TelBroj": "023225145",
        "Rating": "0.2",
        "lat": 41.9928602082,
        "lon": 21.419704746
    },
    {
        "id": "16",
        "Ime": "МОЈСОВИ",
        "Adresa": "Ул.Партизанска бр.96-98",
        "Opstina": "Битола",
        "TelBroj": "047254138",
        "Rating": "1.6",
        "lat": 41.0246527714,
        "lon": 21.3207486431
    },
    {
        "id": "17",
        "Ime": "ХЕРБА",
        "Adresa": "Ул.11 Септември бр.130/6-1",
        "Opstina": "Кичево",
        "TelBroj": "045223978",
        "Rating": "2.5",
        "lat": 41.5185269668,
        "lon": 20.9582101196
    },
    {
        "id": "18",
        "Ime": "ЕУРОФАРМ БАСТИОН",
        "Adresa": "ул.Аминта III бр. 30",
        "Opstina": "Центар",
        "TelBroj": "0",
        "Rating": "2.8",
        "lat": 0,
        "lon": 0
    },
    {
        "id": "19",
        "Ime": "СТЕМ",
        "Adresa": "Ул. Водњанска бр.32 лок.2,",
        "Opstina": "Центар",
        "TelBroj": "023176335",
        "Rating": "2.7",
        "lat": 41.990051,
        "lon": 21.419659
    },
    {
        "id": "20",
        "Ime": "МОЈА АПТЕКА ПРИЛЕП 7",
        "Adresa": "ул.Александар Македонски бр.302",
        "Opstina": "Прилеп",
        "TelBroj": "0",
        "Rating": "4.9",
        "lat": 0,
        "lon": 0
    },
    {
        "id": "21",
        "Ime": "ВАСИЛЕВИ-ИВА",
        "Adresa": "ул. Цар Самоил бр.9",
        "Opstina": "Битола",
        "TelBroj": "0",
        "Rating": "1.3",
        "lat": 0,
        "lon": 0
    },
    {
        "id": "22",
        "Ime": "КАРАКАШ",
        "Adresa": "Ул.Маршал Тито б.б.",
        "Opstina": "Прилеп",
        "TelBroj": "0",
        "Rating": "3.2",
        "lat": 0,
        "lon": 0
    },
    {
        "id": "23",
        "Ime": "ФАРМЕД",
        "Adresa": "Ул.Републиканска бр.49",
        "Opstina": "Прилеп",
        "TelBroj": "0",
        "Rating": "2.0",
        "lat": 41.3453714,
        "lon": 21.5557755405
    },
    {
        "id": "24",
        "Ime": "ЗЕГИН ФАРМ ВЕЛЕС 2",
        "Adresa": "Ул.Благој Ѓорев бр.105",
        "Opstina": "Велес",
        "TelBroj": "0",
        "Rating": "4.8",
        "lat": 0,
        "lon": 0
    },
    {
        "id": "25",
        "Ime": "ФАРМАЦИЈА",
        "Adresa": "Ул.Франклин Рузвелт бр.2",
        "Opstina": "Центар",
        "TelBroj": "0",
        "Rating": "4.0",
        "lat": 0,
        "lon": 0
    },
    {
        "id": "26",
        "Ime": "ГЕНЦИЈАНА 1",
        "Adresa": "Ул.Ѓорги Ѓоргиев бр.19",
        "Opstina": "Битола",
        "TelBroj": "047612031",
        "Rating": "1.5",
        "lat": 41.0262723529,
        "lon": 21.3425302505
    },
    {
        "id": "27",
        "Ime": "ЕУРОФАРМ ХЕРАКЛЕА",
        "Adresa": "ул.Кланица бр.12 ламела Б/6",
        "Opstina": "Битола",
        "TelBroj": "047231926",
        "Rating": "4.3",
        "lat": 41.0292872716,
        "lon": 21.3438391685
    },
    {
        "id": "28",
        "Ime": "ДЕЛТА–ФАРМ",
        "Adresa": "Ул. Прилепска бр.40",
        "Opstina": "Битола",
        "TelBroj": "047241435",
        "Rating": "2.4",
        "lat": 41.0327067104,
        "lon": 21.3421118259
    },
    {
        "id": "29",
        "Ime": "ДАРОН ЛЕК",
        "Adresa": "ул.Јоска Јорданоски бр.6",
        "Opstina": "Прилеп",
        "TelBroj": "048550320",
        "Rating": "2.6",
        "lat": 41.3474260253,
        "lon": 21.5573134281
    },
    {
        "id": "30",
        "Ime": "ЕУРОФАРМ ВЕРО ЦЕНТАР",
        "Adresa": "ул.Бул.Кочо Рацин бр. ТЦ ВЕРО Центар лок.7",
        "Opstina": "Центар",
        "TelBroj": "023100400",
        "Rating": "3.4",
        "lat": 41.9931330615,
        "lon": 21.4415788651
    },
    {
        "id": "31",
        "Ime": "ЕУРОФАРМ",
        "Adresa": "Ул.Партизанска бр.бб",
        "Opstina": "Битола",
        "TelBroj": "047202677",
        "Rating": "0.1",
        "lat": 41.0237736282,
        "lon": 21.318378585
    },
    {
        "id": "32",
        "Ime": "АНГЕЛИКА-2",
        "Adresa": "Ул.Абас Емин бр.80",
        "Opstina": "Охрид",
        "TelBroj": "0",
        "Rating": "2.3",
        "lat": 0,
        "lon": 0
    },
    {
        "id": "33",
        "Ime": "ЕУРОФАРМ ПЕЛИСТЕР",
        "Adresa": "Ул.Климент Охридски бр.30",
        "Opstina": "Битола",
        "TelBroj": "047242459",
        "Rating": "0.7",
        "lat": 41.0245299591,
        "lon": 21.3151013376
    },
    {
        "id": "34",
        "Ime": "МЕДИКА 2003 С.МИРАВЦИ",
        "Adresa": "Маршал Тито бб, с.Миравци",
        "Opstina": "Гевгелија",
        "TelBroj": "034229049",
        "Rating": "2.8",
        "lat": 41.3080994387,
        "lon": 22.4360163346
    },
    {
        "id": "35",
        "Ime": "ЕУРОФАРМ ЛИНКЕСТИС",
        "Adresa": "ул.Солунска бр.бб",
        "Opstina": "Битола",
        "TelBroj": "047525959",
        "Rating": "1.8",
        "lat": 0,
        "lon": 0
    },
    {
        "id": "36",
        "Ime": "МОЈА АПТЕКА КЛИМЕНТ ОХРИДСКИ",
        "Adresa": "Бул. Св.Климент Охридски бр. 23",
        "Opstina": "Центар",
        "TelBroj": "0",
        "Rating": "2.8",
        "lat": 0,
        "lon": 0
    },
    {
        "id": "37",
        "Ime": "БИО-ЛЕК",
        "Adresa": "Булевар Туристичка бр.32",
        "Opstina": "Охрид",
        "TelBroj": "046260580",
        "Rating": "2.6",
        "lat": 41.1147320806,
        "lon": 20.8068501949
    },
    {
        "id": "38",
        "Ime": "ХЕРБА",
        "Adresa": "Т.Ц.Чаирчанка ул.Цветан Димов бр.40",
        "Opstina": "Чаир",
        "TelBroj": "0",
        "Rating": "3.2",
        "lat": 0,
        "lon": 0
    },
    {
        "id": "39",
        "Ime": "ЕУРОФАРМ ПОЛИКЛИНИКА БУКУРЕШТ",
        "Adresa": "ул.Бледски Договор бр.2",
        "Opstina": "Карпош",
        "TelBroj": "023066990",
        "Rating": "2.1",
        "lat": 42.0029385758,
        "lon": 21.4022056633
    },
    {
        "id": "40",
        "Ime": "МОЈА АПТЕКА БИТОЛА 6",
        "Adresa": "ул. Партизанска бр.14",
        "Opstina": "Битола",
        "TelBroj": "0",
        "Rating": "4.8",
        "lat": 0,
        "lon": 0
    },
    {
        "id": "41",
        "Ime": "ГАЛИУМ ФАРМ",
        "Adresa": "ул. Партизанска бр. 4 лок 1 бр. 1",
        "Opstina": "Охрид",
        "TelBroj": "046250202",
        "Rating": "3.6",
        "lat": 41.1130607681,
        "lon": 20.8014281754
    },
    {
        "id": "42",
        "Ime": "НАТУРА ЛЕК",
        "Adresa": "с. Кравари, ул. Гоце Делчев бр. 32",
        "Opstina": "Битола",
        "TelBroj": "047266602",
        "Rating": "1.6",
        "lat": 40.9936801081,
        "lon": 21.3814278318
    },
    {
        "id": "43",
        "Ime": "ИСКРА НАДЕЖ",
        "Adresa": "ул. Мечкин Камен бр.43",
        "Opstina": "Прилеп",
        "TelBroj": "048551257",
        "Rating": "1.2",
        "lat": 41.3436226264,
        "lon": 21.5664818227
    },
    {
        "id": "44",
        "Ime": "ЕУРОФАРМ ВЕЛЕС 3",
        "Adresa": "Ул.Маршал Тито Бр.112",
        "Opstina": "Велес",
        "TelBroj": "0",
        "Rating": "5.0",
        "lat": 0,
        "lon": 0
    },
    {
        "id": "45",
        "Ime": "ФЕНИКС",
        "Adresa": "Ул.Панде Николов б.б",
        "Opstina": "Битола",
        "TelBroj": "047242575",
        "Rating": "1.9",
        "lat": 41.0329252247,
        "lon": 21.3352614641
    },
    {
        "id": "46",
        "Ime": "ВИА ФАРМ 7",
        "Adresa": "Ул.Марко Нестороски бр.164",
        "Opstina": "Охрид",
        "TelBroj": "046288228",
        "Rating": "1.3",
        "lat": 0,
        "lon": 0
    },
    {
        "id": "47",
        "Ime": "МОЈА АПТЕКА ПРИЛЕП 8",
        "Adresa": "бул.Маршал Тито бр.35",
        "Opstina": "Прилеп",
        "TelBroj": "0",
        "Rating": "4.3",
        "lat": 0,
        "lon": 0
    },
    {
        "id": "48",
        "Ime": "СИТИ ФАРМАЦИ 1",
        "Adresa": "ул.Методија Митевски бр.3-2/2",
        "Opstina": "Чаир",
        "TelBroj": "022620075",
        "Rating": "2.7",
        "lat": 42.0187057027,
        "lon": 21.4323105768
    },
    {
        "id": "49",
        "Ime": "ФЛОС",
        "Adresa": "Ул.Сирма Војвода бр.4",
        "Opstina": "Охрид",
        "TelBroj": "046268693",
        "Rating": "2.3",
        "lat": 41.1158798666,
        "lon": 20.8152261706
    },
    {
        "id": "50",
        "Ime": "ЖИВА ФАРМ ЧЕТИРИ",
        "Adresa": "Ул.Благој Ѓорев бр.93",
        "Opstina": "Велес",
        "TelBroj": "078409774",
        "Rating": "3.9",
        "lat": 41.7160606043,
        "lon": 21.7718173597
    },
    {
        "id": "51",
        "Ime": "ДАТЕЛ ФАРМА",
        "Adresa": "ул. Ѓ.Поп Христов бр.1/1",
        "Opstina": "Чаир",
        "TelBroj": "022612536",
        "Rating": "4.9",
        "lat": 42.0158786446,
        "lon": 21.4340043068
    },
    {
        "id": "52",
        "Ime": "САРАЈ ФАРМ",
        "Adresa": "Сарај Ул.20 бр.37",
        "Opstina": "Сарај",
        "TelBroj": "022057133",
        "Rating": "2.9",
        "lat": 41.9987225474,
        "lon": 21.3268876077
    },
    {
        "id": "53",
        "Ime": "ЗЕГИН ФАРМ ПРИЛЕП 1",
        "Adresa": "Ул.Гоце Делчев бр.бб",
        "Opstina": "Прилеп",
        "TelBroj": "0",
        "Rating": "3.5",
        "lat": 0,
        "lon": 0
    },
    {
        "id": "54",
        "Ime": "ОРХИДЕЈА - Б",
        "Adresa": "ул. Јане Сандански бр.7",
        "Opstina": "Аеродром",
        "TelBroj": "0",
        "Rating": "3.2",
        "lat": 0,
        "lon": 0
    },
    {
        "id": "55",
        "Ime": "ВИОЛА 2",
        "Adresa": "Ул.Партизански Oдреди бр.22 - Буњаковец",
        "Opstina": "Центар",
        "TelBroj": "023117814",
        "Rating": "2.3",
        "lat": 0,
        "lon": 0
    },
    {
        "id": "56",
        "Ime": "МОЈА АПТЕКА ОХРИД 2",
        "Adresa": "ул. Димитар Влахов бр.59",
        "Opstina": "Охрид",
        "TelBroj": "046267618",
        "Rating": "2.8",
        "lat": 41.1141807327,
        "lon": 20.8023457104
    },
    {
        "id": "57",
        "Ime": "ЕУКАЛИПТУС",
        "Adresa": "ул. Марксова бр. ББ",
        "Opstina": "Прилеп",
        "TelBroj": "048551110",
        "Rating": "2.1",
        "lat": 41.3486975354,
        "lon": 21.551656723
    },
    {
        "id": "58",
        "Ime": "ЗЕГИН ФАРМ РАДИШАНИ",
        "Adresa": "ул.Радишанска бб",
        "Opstina": "Бутел",
        "TelBroj": "0",
        "Rating": "1.5",
        "lat": 0,
        "lon": 0
    },
    {
        "id": "59",
        "Ime": "АНИФАРМ",
        "Adresa": "Ул.Јане Сандански бр.62",
        "Opstina": "Охрид",
        "TelBroj": "046260714",
        "Rating": "0.5",
        "lat": 41.1138964613,
        "lon": 20.810967214
    },
    {
        "id": "60",
        "Ime": "ЛУНА",
        "Adresa": "Ул.Туристичка бр.2",
        "Opstina": "Охрид",
        "TelBroj": "046512900",
        "Rating": "0.8",
        "lat": 41.1162125489,
        "lon": 20.8033917256
    }
]